[
  {
    "id": 1,
    "title": "Colmar",
    "city": "Goussainville",
    "country": "France",
    "price": 315,
    "rating": 3,
    "latitude": 49.0240609,
    "longitude": 2.4633136,
    "description": "Proin interdum mauris non ligula pellentesque ultrices. Phasellus id sapien in sapien iaculis congue. Vivamus metus arcu, adipiscing molestie, hendrerit at, vulputate vitae, nisl.\n\nAenean lectus. Pellentesque eget nunc. Donec quis orci eget orci vehicula condimentum.",
    "reviews": 141
  },
  {
    "id": 2,
    "title": "Saint-Gervais-les-Bains",
    "city": "Montpellier",
    "country": "France",
    "price": 160,
    "rating": 1,
    "latitude": 43.6121586,
    "longitude": 3.8626074,
    "description": "Aenean fermentum. Donec ut mauris eget massa tempor convallis. Nulla neque libero, convallis eget, eleifend luctus, ultricies eu, nibh.\n\nQuisque id justo sit amet sapien dignissim vestibulum. Vestibulum ante ipsum primis in faucibus orci luctus et ultrices posuere cubilia Curae; Nulla dapibus dolor vel est. Donec odio justo, sollicitudin ut, suscipit a, feugiat et, eros.",
    "reviews": 437
  },
  {
    "id": 3,
    "title": "Megève",
    "city": "Avignon",
    "country": "France",
    "price": 177,
    "rating": 5,
    "latitude": 43.9770581,
    "longitude": 4.8762265,
    "description": "Curabitur gravida nisi at nibh. In hac habitasse platea dictumst. Aliquam augue quam, sollicitudin vitae, consectetuer eget, rutrum at, lorem.\n\nInteger tincidunt ante vel ipsum. Praesent blandit lacinia erat. Vestibulum sed magna at nunc commodo placerat.",
    "reviews": 464
  },
  {
    "id": 4,
    "title": "Briançon",
    "city": "Montreuil",
    "country": "France",
    "price": 272,
    "rating": 1,
    "latitude": 48.8505771,
    "longitude": 2.4273906,
    "description": "Morbi porttitor lorem id ligula. Suspendisse ornare consequat lectus. In est risus, auctor sed, tristique in, tempus sit amet, sem.\n\nFusce consequat. Nulla nisl. Nunc nisl.",
    "reviews": 226
  },
  {
    "id": 5,
    "title": "Saint-Gervais-les-Bains",
    "city": "Fleury-les-Aubrais",
    "country": "France",
    "price": 175,
    "rating": 1,
    "latitude": 47.931513,
    "longitude": 1.920754,
    "description": "Morbi porttitor lorem id ligula. Suspendisse ornare consequat lectus. In est risus, auctor sed, tristique in, tempus sit amet, sem.",
    "reviews": 325
  },
  {
    "id": 6,
    "title": "Chambéry",
    "city": "Montauban",
    "country": "France",
    "price": 155,
    "rating": 3,
    "latitude": 44.025555,
    "longitude": 1.378056,
    "description": "Nullam sit amet turpis elementum ligula vehicula consequat. Morbi a ipsum. Integer a nibh.\n\nIn quis justo. Maecenas rhoncus aliquam lacus. Morbi quis tortor id nulla ultrices aliquet.\n\nMaecenas leo odio, condimentum id, luctus nec, molestie sed, justo. Pellentesque viverra pede ac diam. Cras pellentesque volutpat dui.",
    "reviews": 99
  },
  {
    "id": 7,
    "title": "Briançon",
    "city": "Floirac",
    "country": "France",
    "price": 107,
    "rating": 5,
    "latitude": 44.2874089,
    "longitude": 1.997385,
    "description": "Phasellus sit amet erat. Nulla tempus. Vivamus in felis eu sapien cursus vestibulum.",
    "reviews": 217
  },
  {
    "id": 8,
    "title": "La Clusaz",
    "city": "Orléans",
    "country": "France",
    "price": 237,
    "rating": 4,
    "latitude": 47.3591366,
    "longitude": 2.8002946,
    "description": "Cras mi pede, malesuada in, imperdiet et, commodo vulputate, justo. In blandit ultrices enim. Lorem ipsum dolor sit amet, consectetuer adipiscing elit.",
    "reviews": 15
  },
  {
    "id": 9,
    "title": "Lourdes",
    "city": "Arpajon",
    "country": "France",
    "price": 272,
    "rating": 2,
    "latitude": 48.589056,
    "longitude": 2.2458778,
    "description": "Vestibulum ac est lacinia nisi venenatis tristique. Fusce congue, diam id ornare imperdiet, sapien urna pretium nisl, ut volutpat sapien arcu sed augue. Aliquam erat volutpat.",
    "reviews": 242
  },
  {
    "id": 10,
    "title": "Barcelonnette",
    "city": "Orléans",
    "country": "France",
    "price": 55,
    "rating": 1,
    "latitude": 47.3591366,
    "longitude": 2.8002946,
    "description": "In sagittis dui vel nisl. Duis ac nibh. Fusce lacus purus, aliquet at, feugiat non, pretium quis, lectus.\n\nSuspendisse potenti. In eleifend quam a odio. In hac habitasse platea dictumst.",
    "reviews": 323
  },
  {
    "id": 11,
    "title": "Megève",
    "city": "Kingersheim",
    "country": "France",
    "price": 365,
    "rating": 1,
    "latitude": 47.8060989,
    "longitude": 7.3372459,
    "description": "Duis consequat dui nec nisi volutpat eleifend. Donec ut dolor. Morbi vel lectus in quam fringilla rhoncus.\n\nMauris enim leo, rhoncus sed, vestibulum sit amet, cursus id, turpis. Integer aliquet, massa id lobortis convallis, tortor risus dapibus augue, vel accumsan tellus nisi eu orci. Mauris lacinia sapien quis libero.\n\nNullam sit amet turpis elementum ligula vehicula consequat. Morbi a ipsum. Integer a nibh.",
    "reviews": 286
  },
  {
    "id": 12,
    "title": "Colmar",
    "city": "Tournan-en-Brie",
    "country": "France",
    "price": 316,
    "rating": 4,
    "latitude": 48.7393933,
    "longitude": 2.7594768,
    "description": "Donec diam neque, vestibulum eget, vulputate ut, ultrices vel, augue. Vestibulum ante ipsum primis in faucibus orci luctus et ultrices posuere cubilia Curae; Donec pharetra, magna vestibulum aliquet ultrices, erat tortor sollicitudin mi, sit amet lobortis sapien sapien non mi. Integer ac neque.\n\nDuis bibendum. Morbi non quam nec dui luctus rutrum. Nulla tellus.\n\nIn sagittis dui vel nisl. Duis ac nibh. Fusce lacus purus, aliquet at, feugiat non, pretium quis, lectus.",
    "reviews": 390
  },
  {
    "id": 13,
    "title": "La Clusaz",
    "city": "Claye-Souilly",
    "country": "France",
    "price": 306,
    "rating": 2,
    "latitude": 48.9648089,
    "longitude": 2.6986517,
    "description": "Pellentesque at nulla. Suspendisse potenti. Cras in purus eu magna vulputate luctus.\n\nCum sociis natoque penatibus et magnis dis parturient montes, nascetur ridiculus mus. Vivamus vestibulum sagittis sapien. Cum sociis natoque penatibus et magnis dis parturient montes, nascetur ridiculus mus.",
    "reviews": 23
  },
  {
    "id": 14,
    "title": "La Grave",
    "city": "Paris 18",
    "country": "France",
    "price": 75,
    "rating": 1,
    "latitude": 43.4945737,
    "longitude": 5.8978018,
    "description": "Sed sagittis. Nam congue, risus semper porta volutpat, quam pede lobortis ligula, sit amet eleifend pede libero quis orci. Nullam molestie nibh in lectus.",
    "reviews": 203
  },
  {
    "id": 15,
    "title": "Biarritz",
    "city": "Avignon",
    "country": "France",
    "price": 49,
    "rating": 2,
    "latitude": 47.5113895,
    "longitude": 1.820875,
    "description": "Etiam vel augue. Vestibulum rutrum rutrum neque. Aenean auctor gravida sem.\n\nPraesent id massa id nisl venenatis lacinia. Aenean sit amet justo. Morbi ut odio.",
    "reviews": 91
  },
  {
    "id": 16,
    "title": "Chambéry",
    "city": "Angers",
    "country": "France",
    "price": 163,
    "rating": 5,
    "latitude": 47.4441206,
    "longitude": -0.5572458,
    "description": "Proin leo odio, porttitor id, consequat in, consequat ut, nulla. Sed accumsan felis. Ut at dolor quis odio consequat varius.\n\nInteger ac leo. Pellentesque ultrices mattis odio. Donec vitae nisi.",
    "reviews": 485
  },
  {
    "id": 17,
    "title": "Les Contamines-Montjoie",
    "city": "Angoulême",
    "country": "France",
    "price": 88,
    "rating": 1,
    "latitude": 45.6258385,
    "longitude": 0.0629891,
    "description": "Aenean lectus. Pellentesque eget nunc. Donec quis orci eget orci vehicula condimentum.",
    "reviews": 107
  },
  {
    "id": 18,
    "title": "Colmar",
    "city": "Marseille",
    "country": "France",
    "price": 329,
    "rating": 2,
    "latitude": 43.7441795,
    "longitude": 2.511999,
    "description": "Mauris enim leo, rhoncus sed, vestibulum sit amet, cursus id, turpis. Integer aliquet, massa id lobortis convallis, tortor risus dapibus augue, vel accumsan tellus nisi eu orci. Mauris lacinia sapien quis libero.\n\nNullam sit amet turpis elementum ligula vehicula consequat. Morbi a ipsum. Integer a nibh.",
    "reviews": 81
  },
  {
    "id": 19,
    "title": "Les Contamines-Montjoie",
    "city": "Marly-le-Roi",
    "country": "France",
    "price": 344,
    "rating": 1,
    "latitude": 48.829733,
    "longitude": 2.1177361,
    "description": "Proin leo odio, porttitor id, consequat in, consequat ut, nulla. Sed accumsan felis. Ut at dolor quis odio consequat varius.\n\nInteger ac leo. Pellentesque ultrices mattis odio. Donec vitae nisi.",
    "reviews": 471
  },
  {
    "id": 20,
    "title": "Alpe d'Huez",
    "city": "Villeneuve-sur-Lot",
    "country": "France",
    "price": 376,
    "rating": 1,
    "latitude": 44.4103234,
    "longitude": 0.7060015,
    "description": "Lorem ipsum dolor sit amet, consectetuer adipiscing elit. Proin risus. Praesent lectus.\n\nVestibulum quam sapien, varius ut, blandit non, interdum in, ante. Vestibulum ante ipsum primis in faucibus orci luctus et ultrices posuere cubilia Curae; Duis faucibus accumsan odio. Curabitur convallis.\n\nDuis consequat dui nec nisi volutpat eleifend. Donec ut dolor. Morbi vel lectus in quam fringilla rhoncus.",
    "reviews": 473
  },
  {
    "id": 21,
    "title": "Chambéry",
    "city": "Toulouse",
    "country": "France",
    "price": 204,
    "rating": 5,
    "latitude": 43.555403,
    "longitude": 1.503894,
    "description": "In hac habitasse platea dictumst. Morbi vestibulum, velit id pretium iaculis, diam erat fermentum justo, nec condimentum neque sapien placerat ante. Nulla justo.",
    "reviews": 147
  },
  {
    "id": 22,
    "title": "Menton",
    "city": "Aurillac",
    "country": "France",
    "price": 338,
    "rating": 2,
    "latitude": 44.9263486,
    "longitude": 2.4396467,
    "description": "Aliquam quis turpis eget elit sodales scelerisque. Mauris sit amet eros. Suspendisse accumsan tortor quis turpis.",
    "reviews": 319
  },
  {
    "id": 23,
    "title": "Le Bourg-d'Oisans",
    "city": "Lyon",
    "country": "France",
    "price": 284,
    "rating": 1,
    "latitude": 43.0429124,
    "longitude": 1.9038837,
    "description": "Aenean lectus. Pellentesque eget nunc. Donec quis orci eget orci vehicula condimentum.",
    "reviews": 261
  },
  {
    "id": 24,
    "title": "Saint-Malo",
    "city": "Paris 07",
    "country": "France",
    "price": 344,
    "rating": 4,
    "latitude": 48.87561,
    "longitude": 2.302597,
    "description": "Sed ante. Vivamus tortor. Duis mattis egestas metus.\n\nAenean fermentum. Donec ut mauris eget massa tempor convallis. Nulla neque libero, convallis eget, eleifend luctus, ultricies eu, nibh.\n\nQuisque id justo sit amet sapien dignissim vestibulum. Vestibulum ante ipsum primis in faucibus orci luctus et ultrices posuere cubilia Curae; Nulla dapibus dolor vel est. Donec odio justo, sollicitudin ut, suscipit a, feugiat et, eros.",
    "reviews": 448
  },
  {
    "id": 25,
    "title": "Chambéry",
    "city": "Paris 20",
    "country": "France",
    "price": 44,
    "rating": 1,
    "latitude": 43.4945737,
    "longitude": 5.8978018,
    "description": "Curabitur gravida nisi at nibh. In hac habitasse platea dictumst. Aliquam augue quam, sollicitudin vitae, consectetuer eget, rutrum at, lorem.",
    "reviews": 401
  },
  {
    "id": 26,
    "title": "Colmar",
    "city": "Saint-Maurice-l'Exil",
    "country": "France",
    "price": 141,
    "rating": 4,
    "latitude": 45.39771,
    "longitude": 4.77996,
    "description": "Donec diam neque, vestibulum eget, vulputate ut, ultrices vel, augue. Vestibulum ante ipsum primis in faucibus orci luctus et ultrices posuere cubilia Curae; Donec pharetra, magna vestibulum aliquet ultrices, erat tortor sollicitudin mi, sit amet lobortis sapien sapien non mi. Integer ac neque.\n\nDuis bibendum. Morbi non quam nec dui luctus rutrum. Nulla tellus.\n\nIn sagittis dui vel nisl. Duis ac nibh. Fusce lacus purus, aliquet at, feugiat non, pretium quis, lectus.",
    "reviews": 266
  },
  {
    "id": 27,
    "title": "Les Deux Alpes",
    "city": "Paris 12",
    "country": "France",
    "price": 176,
    "rating": 4,
    "latitude": 43.4945737,
    "longitude": 5.8978018,
    "description": "Quisque id justo sit amet sapien dignissim vestibulum. Vestibulum ante ipsum primis in faucibus orci luctus et ultrices posuere cubilia Curae; Nulla dapibus dolor vel est. Donec odio justo, sollicitudin ut, suscipit a, feugiat et, eros.",
    "reviews": 57
  },
  {
    "id": 28,
    "title": "Aix-en-Provence",
    "city": "Nîmes",
    "country": "France",
    "price": 239,
    "rating": 3,
    "latitude": 43.8177168,
    "longitude": 4.343135,
    "description": "In congue. Etiam justo. Etiam pretium iaculis justo.\n\nIn hac habitasse platea dictumst. Etiam faucibus cursus urna. Ut tellus.\n\nNulla ut erat id mauris vulputate elementum. Nullam varius. Nulla facilisi.",
    "reviews": 58
  },
  {
    "id": 29,
    "title": "Megève",
    "city": "Paris 03",
    "country": "France",
    "price": 236,
    "rating": 4,
    "latitude": 43.4945737,
    "longitude": 5.8978018,
    "description": "In quis justo. Maecenas rhoncus aliquam lacus. Morbi quis tortor id nulla ultrices aliquet.",
    "reviews": 120
  },
  {
    "id": 30,
    "title": "Grenoble",
    "city": "Cergy-Pontoise",
    "country": "France",
    "price": 132,
    "rating": 2,
    "latitude": 49.0422777,
    "longitude": 2.03776,
    "description": "In sagittis dui vel nisl. Duis ac nibh. Fusce lacus purus, aliquet at, feugiat non, pretium quis, lectus.\n\nSuspendisse potenti. In eleifend quam a odio. In hac habitasse platea dictumst.",
    "reviews": 411
  },
  {
    "id": 31,
    "title": "Megève",
    "city": "Ajaccio",
    "country": "France",
    "price": 232,
    "rating": 4,
    "latitude": 46.6473105,
    "longitude": 0.813275,
    "description": "Proin eu mi. Nulla ac enim. In tempor, turpis nec euismod scelerisque, quam turpis adipiscing lorem, vitae mattis nibh ligula nec sem.\n\nDuis aliquam convallis nunc. Proin at turpis a pede posuere nonummy. Integer non velit.",
    "reviews": 152
  },
  {
    "id": 32,
    "title": "Veysonnaz",
    "city": "Levallois-Perret",
    "country": "France",
    "price": 347,
    "rating": 5,
    "latitude": 49.2272998,
    "longitude": 2.8814002,
    "description": "Integer tincidunt ante vel ipsum. Praesent blandit lacinia erat. Vestibulum sed magna at nunc commodo placerat.",
    "reviews": 155
  },
  {
    "id": 33,
    "title": "Aix-en-Provence",
    "city": "Issoudun",
    "country": "France",
    "price": 235,
    "rating": 2,
    "latitude": 46.9483051,
    "longitude": 1.9894311,
    "description": "Aliquam quis turpis eget elit sodales scelerisque. Mauris sit amet eros. Suspendisse accumsan tortor quis turpis.\n\nSed ante. Vivamus tortor. Duis mattis egestas metus.\n\nAenean fermentum. Donec ut mauris eget massa tempor convallis. Nulla neque libero, convallis eget, eleifend luctus, ultricies eu, nibh.",
    "reviews": 40
  },
  {
    "id": 34,
    "title": "Barcelonnette",
    "city": "Saint-Ouen",
    "country": "France",
    "price": 246,
    "rating": 2,
    "latitude": 46.5993244,
    "longitude": -1.1457859,
    "description": "Maecenas tristique, est et tempus semper, est quam pharetra magna, ac consequat metus sapien ut nunc. Vestibulum ante ipsum primis in faucibus orci luctus et ultrices posuere cubilia Curae; Mauris viverra diam vitae quam. Suspendisse potenti.\n\nNullam porttitor lacus at turpis. Donec posuere metus vitae ipsum. Aliquam non mauris.\n\nMorbi non lectus. Aliquam sit amet diam in magna bibendum imperdiet. Nullam orci pede, venenatis non, sodales sed, tincidunt eu, felis.",
    "reviews": 217
  },
  {
    "id": 35,
    "title": "Grenoble",
    "city": "Mulhouse",
    "country": "France",
    "price": 241,
    "rating": 4,
    "latitude": 47.7489727,
    "longitude": 7.3507066,
    "description": "Vestibulum ac est lacinia nisi venenatis tristique. Fusce congue, diam id ornare imperdiet, sapien urna pretium nisl, ut volutpat sapien arcu sed augue. Aliquam erat volutpat.",
    "reviews": 103
  },
  {
    "id": 36,
    "title": "Saint-Gervais-les-Bains",
    "city": "Lyon",
    "country": "France",
    "price": 136,
    "rating": 5,
    "latitude": 43.0429124,
    "longitude": 1.9038837,
    "description": "Morbi porttitor lorem id ligula. Suspendisse ornare consequat lectus. In est risus, auctor sed, tristique in, tempus sit amet, sem.",
    "reviews": 330
  },
  {
    "id": 37,
    "title": "Chamonix",
    "city": "La Charité-sur-Loire",
    "country": "France",
    "price": 322,
    "rating": 4,
    "latitude": 47.1837657,
    "longitude": 3.0182755,
    "description": "Duis bibendum, felis sed interdum venenatis, turpis enim blandit mi, in porttitor pede justo eu massa. Donec dapibus. Duis at velit eu est congue elementum.\n\nIn hac habitasse platea dictumst. Morbi vestibulum, velit id pretium iaculis, diam erat fermentum justo, nec condimentum neque sapien placerat ante. Nulla justo.\n\nAliquam quis turpis eget elit sodales scelerisque. Mauris sit amet eros. Suspendisse accumsan tortor quis turpis.",
    "reviews": 143
  },
  {
    "id": 38,
    "title": "La Clusaz",
    "city": "Bar-le-Duc",
    "country": "France",
    "price": 233,
    "rating": 2,
    "latitude": 48.7131111,
    "longitude": 5.0953327,
    "description": "In hac habitasse platea dictumst. Morbi vestibulum, velit id pretium iaculis, diam erat fermentum justo, nec condimentum neque sapien placerat ante. Nulla justo.\n\nAliquam quis turpis eget elit sodales scelerisque. Mauris sit amet eros. Suspendisse accumsan tortor quis turpis.",
    "reviews": 320
  },
  {
    "id": 39,
    "title": "Les Contamines-Montjoie",
    "city": "Puteaux",
    "country": "France",
    "price": 216,
    "rating": 5,
    "latitude": 48.8834605,
    "longitude": 2.2335234,
    "description": "Suspendisse potenti. In eleifend quam a odio. In hac habitasse platea dictumst.\n\nMaecenas ut massa quis augue luctus tincidunt. Nulla mollis molestie lorem. Quisque ut erat.",
    "reviews": 197
  },
  {
    "id": 40,
    "title": "Samoëns",
    "city": "Marseille",
    "country": "France",
    "price": 110,
    "rating": 5,
    "latitude": 43.7441795,
    "longitude": 2.511999,
    "description": "Vestibulum ac est lacinia nisi venenatis tristique. Fusce congue, diam id ornare imperdiet, sapien urna pretium nisl, ut volutpat sapien arcu sed augue. Aliquam erat volutpat.\n\nIn congue. Etiam justo. Etiam pretium iaculis justo.\n\nIn hac habitasse platea dictumst. Etiam faucibus cursus urna. Ut tellus.",
    "reviews": 115
  },
  {
    "id": 41,
    "title": "Saint-Jean-de-Maurienne",
    "city": "Metz",
    "country": "France",
    "price": 250,
    "rating": 4,
    "latitude": 49.116169,
    "longitude": 6.1807997,
    "description": "Nullam porttitor lacus at turpis. Donec posuere metus vitae ipsum. Aliquam non mauris.\n\nMorbi non lectus. Aliquam sit amet diam in magna bibendum imperdiet. Nullam orci pede, venenatis non, sodales sed, tincidunt eu, felis.\n\nFusce posuere felis sed lacus. Morbi sem mauris, laoreet ut, rhoncus aliquet, pulvinar sed, nisl. Nunc rhoncus dui vel sem.",
    "reviews": 158
  },
  {
    "id": 42,
    "title": "Modane",
    "city": "Troyes",
    "country": "France",
    "price": 137,
    "rating": 4,
    "latitude": 48.3006708,
    "longitude": 4.0710348,
    "description": "Fusce posuere felis sed lacus. Morbi sem mauris, laoreet ut, rhoncus aliquet, pulvinar sed, nisl. Nunc rhoncus dui vel sem.",
    "reviews": 351
  },
  {
    "id": 43,
    "title": "Chamonix",
    "city": "Avranches",
    "country": "France",
    "price": 245,
    "rating": 4,
    "latitude": 48.690168,
    "longitude": -1.3699309,
    "description": "Phasellus in felis. Donec semper sapien a libero. Nam dui.",
    "reviews": 45
  },
  {
    "id": 44,
    "title": "Barcelonnette",
    "city": "Nanterre",
    "country": "France",
    "price": 171,
    "rating": 3,
    "latitude": 48.9003986,
    "longitude": 2.2166408,
    "description": "Curabitur in libero ut massa volutpat convallis. Morbi odio odio, elementum eu, interdum eu, tincidunt in, leo. Maecenas pulvinar lobortis est.\n\nPhasellus sit amet erat. Nulla tempus. Vivamus in felis eu sapien cursus vestibulum.\n\nProin eu mi. Nulla ac enim. In tempor, turpis nec euismod scelerisque, quam turpis adipiscing lorem, vitae mattis nibh ligula nec sem.",
    "reviews": 328
  },
  {
    "id": 45,
    "title": "Chambéry",
    "city": "Armentières",
    "country": "France",
    "price": 320,
    "rating": 2,
    "latitude": 47.5619629,
    "longitude": -0.9147447,
    "description": "Pellentesque at nulla. Suspendisse potenti. Cras in purus eu magna vulputate luctus.",
    "reviews": 18
  },
  {
    "id": 46,
    "title": "Saint-Jean-de-Maurienne",
    "city": "Vincennes",
    "country": "France",
    "price": 69,
    "rating": 4,
    "latitude": 44.8178615,
    "longitude": -0.2498116,
    "description": "Phasellus sit amet erat. Nulla tempus. Vivamus in felis eu sapien cursus vestibulum.",
    "reviews": 355
  },
  {
    "id": 47,
    "title": "Alpe d'Huez",
    "city": "Clisson",
    "country": "France",
    "price": 93,
    "rating": 2,
    "latitude": 47.0799211,
    "longitude": -1.2821339,
    "description": "Morbi porttitor lorem id ligula. Suspendisse ornare consequat lectus. In est risus, auctor sed, tristique in, tempus sit amet, sem.\n\nFusce consequat. Nulla nisl. Nunc nisl.\n\nDuis bibendum, felis sed interdum venenatis, turpis enim blandit mi, in porttitor pede justo eu massa. Donec dapibus. Duis at velit eu est congue elementum.",
    "reviews": 290
  },
  {
    "id": 48,
    "title": "Chamonix",
    "city": "Noyal-sur-Vilaine",
    "country": "France",
    "price": 291,
    "rating": 3,
    "latitude": 48.1079676,
    "longitude": -1.5212701,
    "description": "Etiam vel augue. Vestibulum rutrum rutrum neque. Aenean auctor gravida sem.\n\nPraesent id massa id nisl venenatis lacinia. Aenean sit amet justo. Morbi ut odio.\n\nCras mi pede, malesuada in, imperdiet et, commodo vulputate, justo. In blandit ultrices enim. Lorem ipsum dolor sit amet, consectetuer adipiscing elit.",
    "reviews": 107
  },
  {
    "id": 49,
    "title": "Saint-Malo",
    "city": "Chartres",
    "country": "France",
    "price": 242,
    "rating": 1,
    "latitude": 45.106849,
    "longitude": -0.6297654,
    "description": "Proin eu mi. Nulla ac enim. In tempor, turpis nec euismod scelerisque, quam turpis adipiscing lorem, vitae mattis nibh ligula nec sem.\n\nDuis aliquam convallis nunc. Proin at turpis a pede posuere nonummy. Integer non velit.\n\nDonec diam neque, vestibulum eget, vulputate ut, ultrices vel, augue. Vestibulum ante ipsum primis in faucibus orci luctus et ultrices posuere cubilia Curae; Donec pharetra, magna vestibulum aliquet ultrices, erat tortor sollicitudin mi, sit amet lobortis sapien sapien non mi. Integer ac neque.",
    "reviews": 390
  },
  {
    "id": 50,
    "title": "Chamonix",
    "city": "Montauban",
    "country": "France",
    "price": 83,
    "rating": 5,
    "latitude": 44.025555,
    "longitude": 1.378056,
    "description": "Proin interdum mauris non ligula pellentesque ultrices. Phasellus id sapien in sapien iaculis congue. Vivamus metus arcu, adipiscing molestie, hendrerit at, vulputate vitae, nisl.\n\nAenean lectus. Pellentesque eget nunc. Donec quis orci eget orci vehicula condimentum.",
    "reviews": 227
  },
  {
    "id": 51,
    "title": "Biarritz",
    "city": "Arras",
    "country": "France",
    "price": 119,
    "rating": 5,
    "latitude": 50.2837307,
    "longitude": 2.7425682,
    "description": "In hac habitasse platea dictumst. Morbi vestibulum, velit id pretium iaculis, diam erat fermentum justo, nec condimentum neque sapien placerat ante. Nulla justo.\n\nAliquam quis turpis eget elit sodales scelerisque. Mauris sit amet eros. Suspendisse accumsan tortor quis turpis.",
    "reviews": 491
  },
  {
    "id": 52,
    "title": "Briançon",
    "city": "Domont",
    "country": "France",
    "price": 338,
    "rating": 2,
    "latitude": 49.034461,
    "longitude": 2.3496109,
    "description": "Fusce consequat. Nulla nisl. Nunc nisl.\n\nDuis bibendum, felis sed interdum venenatis, turpis enim blandit mi, in porttitor pede justo eu massa. Donec dapibus. Duis at velit eu est congue elementum.\n\nIn hac habitasse platea dictumst. Morbi vestibulum, velit id pretium iaculis, diam erat fermentum justo, nec condimentum neque sapien placerat ante. Nulla justo.",
    "reviews": 221
  },
  {
    "id": 53,
    "title": "Barcelonnette",
    "city": "Le Havre",
    "country": "France",
    "price": 200,
    "rating": 1,
    "latitude": 48.0386685,
    "longitude": -2.9231898,
    "description": "Phasellus sit amet erat. Nulla tempus. Vivamus in felis eu sapien cursus vestibulum.",
    "reviews": 102
  },
  {
    "id": 54,
    "title": "Colmar",
    "city": "Roubaix",
    "country": "France",
    "price": 360,
    "rating": 5,
    "latitude": 50.7022235,
    "longitude": 3.1685214,
    "description": "Praesent blandit. Nam nulla. Integer pede justo, lacinia eget, tincidunt eget, tempus vel, pede.\n\nMorbi porttitor lorem id ligula. Suspendisse ornare consequat lectus. In est risus, auctor sed, tristique in, tempus sit amet, sem.\n\nFusce consequat. Nulla nisl. Nunc nisl.",
    "reviews": 164
  },
  {
    "id": 55,
    "title": "Chamonix",
    "city": "Libourne",
    "country": "France",
    "price": 363,
    "rating": 3,
    "latitude": 44.9158731,
    "longitude": -0.2363562,
    "description": "Aenean lectus. Pellentesque eget nunc. Donec quis orci eget orci vehicula condimentum.\n\nCurabitur in libero ut massa volutpat convallis. Morbi odio odio, elementum eu, interdum eu, tincidunt in, leo. Maecenas pulvinar lobortis est.",
    "reviews": 296
  },
  {
    "id": 56,
    "title": "Aix-en-Provence",
    "city": "Portet-sur-Garonne",
    "country": "France",
    "price": 359,
    "rating": 2,
    "latitude": 43.53121,
    "longitude": 1.402934,
    "description": "Donec diam neque, vestibulum eget, vulputate ut, ultrices vel, augue. Vestibulum ante ipsum primis in faucibus orci luctus et ultrices posuere cubilia Curae; Donec pharetra, magna vestibulum aliquet ultrices, erat tortor sollicitudin mi, sit amet lobortis sapien sapien non mi. Integer ac neque.",
    "reviews": 303
  },
  {
    "id": 57,
    "title": "Saint-Véran",
    "city": "Paris 08",
    "country": "France",
    "price": 342,
    "rating": 4,
    "latitude": 43.4945737,
    "longitude": 5.8978018,
    "description": "Vestibulum ac est lacinia nisi venenatis tristique. Fusce congue, diam id ornare imperdiet, sapien urna pretium nisl, ut volutpat sapien arcu sed augue. Aliquam erat volutpat.\n\nIn congue. Etiam justo. Etiam pretium iaculis justo.",
    "reviews": 183
  },
  {
    "id": 58,
    "title": "La Grave",
    "city": "Lille",
    "country": "France",
    "price": 124,
    "rating": 5,
    "latitude": 44.1675867,
    "longitude": 2.0308233,
    "description": "Duis consequat dui nec nisi volutpat eleifend. Donec ut dolor. Morbi vel lectus in quam fringilla rhoncus.\n\nMauris enim leo, rhoncus sed, vestibulum sit amet, cursus id, turpis. Integer aliquet, massa id lobortis convallis, tortor risus dapibus augue, vel accumsan tellus nisi eu orci. Mauris lacinia sapien quis libero.\n\nNullam sit amet turpis elementum ligula vehicula consequat. Morbi a ipsum. Integer a nibh.",
    "reviews": 210
  },
  {
    "id": 59,
    "title": "Alpe d'Huez",
    "city": "Argenteuil",
    "country": "France",
    "price": 377,
    "rating": 4,
    "latitude": 48.9467896,
    "longitude": 2.257134,
    "description": "Proin interdum mauris non ligula pellentesque ultrices. Phasellus id sapien in sapien iaculis congue. Vivamus metus arcu, adipiscing molestie, hendrerit at, vulputate vitae, nisl.\n\nAenean lectus. Pellentesque eget nunc. Donec quis orci eget orci vehicula condimentum.\n\nCurabitur in libero ut massa volutpat convallis. Morbi odio odio, elementum eu, interdum eu, tincidunt in, leo. Maecenas pulvinar lobortis est.",
    "reviews": 23
  },
  {
    "id": 60,
    "title": "Le Bourg-d'Oisans",
    "city": "Nancy",
    "country": "France",
    "price": 100,
    "rating": 3,
    "latitude": 48.689836,
    "longitude": 6.17445,
    "description": "Curabitur gravida nisi at nibh. In hac habitasse platea dictumst. Aliquam augue quam, sollicitudin vitae, consectetuer eget, rutrum at, lorem.\n\nInteger tincidunt ante vel ipsum. Praesent blandit lacinia erat. Vestibulum sed magna at nunc commodo placerat.\n\nPraesent blandit. Nam nulla. Integer pede justo, lacinia eget, tincidunt eget, tempus vel, pede.",
    "reviews": 159
  },
  {
    "id": 61,
    "title": "Grenoble",
    "city": "Lyon",
    "country": "France",
    "price": 43,
    "rating": 2,
    "latitude": 43.0429124,
    "longitude": 1.9038837,
    "description": "Cras mi pede, malesuada in, imperdiet et, commodo vulputate, justo. In blandit ultrices enim. Lorem ipsum dolor sit amet, consectetuer adipiscing elit.\n\nProin interdum mauris non ligula pellentesque ultrices. Phasellus id sapien in sapien iaculis congue. Vivamus metus arcu, adipiscing molestie, hendrerit at, vulputate vitae, nisl.\n\nAenean lectus. Pellentesque eget nunc. Donec quis orci eget orci vehicula condimentum.",
    "reviews": 301
  },
  {
    "id": 62,
    "title": "Saint-Jean-de-Maurienne",
    "city": "Sannois",
    "country": "France",
    "price": 367,
    "rating": 4,
    "latitude": 48.9648921,
    "longitude": 2.2558072,
    "description": "Aliquam quis turpis eget elit sodales scelerisque. Mauris sit amet eros. Suspendisse accumsan tortor quis turpis.\n\nSed ante. Vivamus tortor. Duis mattis egestas metus.",
    "reviews": 96
  },
  {
    "id": 63,
    "title": "La Clusaz",
    "city": "Millau",
    "country": "France",
    "price": 324,
    "rating": 2,
    "latitude": 44.1012172,
    "longitude": 3.0792713,
    "description": "Curabitur gravida nisi at nibh. In hac habitasse platea dictumst. Aliquam augue quam, sollicitudin vitae, consectetuer eget, rutrum at, lorem.",
    "reviews": 247
  },
  {
    "id": 64,
    "title": "Les Contamines-Montjoie",
    "city": "Vannes",
    "country": "France",
    "price": 285,
    "rating": 1,
    "latitude": 47.6651939,
    "longitude": -2.7524402,
    "description": "Proin leo odio, porttitor id, consequat in, consequat ut, nulla. Sed accumsan felis. Ut at dolor quis odio consequat varius.\n\nInteger ac leo. Pellentesque ultrices mattis odio. Donec vitae nisi.",
    "reviews": 166
  },
  {
    "id": 65,
    "title": "Chamonix",
    "city": "Pontivy",
    "country": "France",
    "price": 323,
    "rating": 2,
    "latitude": 47.7526314,
    "longitude": -2.285174,
    "description": "Nullam porttitor lacus at turpis. Donec posuere metus vitae ipsum. Aliquam non mauris.\n\nMorbi non lectus. Aliquam sit amet diam in magna bibendum imperdiet. Nullam orci pede, venenatis non, sodales sed, tincidunt eu, felis.\n\nFusce posuere felis sed lacus. Morbi sem mauris, laoreet ut, rhoncus aliquet, pulvinar sed, nisl. Nunc rhoncus dui vel sem.",
    "reviews": 383
  },
  {
    "id": 66,
    "title": "Alpe d'Huez",
    "city": "Lyon",
    "country": "France",
    "price": 383,
    "rating": 1,
    "latitude": 45.7451347,
    "longitude": 4.8252311,
    "description": "Cras mi pede, malesuada in, imperdiet et, commodo vulputate, justo. In blandit ultrices enim. Lorem ipsum dolor sit amet, consectetuer adipiscing elit.\n\nProin interdum mauris non ligula pellentesque ultrices. Phasellus id sapien in sapien iaculis congue. Vivamus metus arcu, adipiscing molestie, hendrerit at, vulputate vitae, nisl.\n\nAenean lectus. Pellentesque eget nunc. Donec quis orci eget orci vehicula condimentum.",
    "reviews": 78
  },
  {
    "id": 67,
    "title": "Megève",
    "city": "Lille",
    "country": "France",
    "price": 79,
    "rating": 3,
    "latitude": 44.1675867,
    "longitude": 2.0308233,
    "description": "Maecenas tristique, est et tempus semper, est quam pharetra magna, ac consequat metus sapien ut nunc. Vestibulum ante ipsum primis in faucibus orci luctus et ultrices posuere cubilia Curae; Mauris viverra diam vitae quam. Suspendisse potenti.",
    "reviews": 420
  },
  {
    "id": 68,
    "title": "Megève",
    "city": "Évry",
    "country": "France",
    "price": 249,
    "rating": 2,
    "latitude": 48.6277459,
    "longitude": 2.4381665,
    "description": "Mauris enim leo, rhoncus sed, vestibulum sit amet, cursus id, turpis. Integer aliquet, massa id lobortis convallis, tortor risus dapibus augue, vel accumsan tellus nisi eu orci. Mauris lacinia sapien quis libero.\n\nNullam sit amet turpis elementum ligula vehicula consequat. Morbi a ipsum. Integer a nibh.\n\nIn quis justo. Maecenas rhoncus aliquam lacus. Morbi quis tortor id nulla ultrices aliquet.",
    "reviews": 341
  },
  {
    "id": 69,
    "title": "Saint-Véran",
    "city": "Sceaux",
    "country": "France",
    "price": 396,
    "rating": 4,
    "latitude": 46.614036,
    "longitude": 0.0494681,
    "description": "Pellentesque at nulla. Suspendisse potenti. Cras in purus eu magna vulputate luctus.\n\nCum sociis natoque penatibus et magnis dis parturient montes, nascetur ridiculus mus. Vivamus vestibulum sagittis sapien. Cum sociis natoque penatibus et magnis dis parturient montes, nascetur ridiculus mus.",
    "reviews": 306
  },
  {
    "id": 70,
    "title": "Alpe d'Huez",
    "city": "Nice",
    "country": "France",
    "price": 359,
    "rating": 2,
    "latitude": 43.704612,
    "longitude": 7.261933,
    "description": "Aenean lectus. Pellentesque eget nunc. Donec quis orci eget orci vehicula condimentum.",
    "reviews": 247
  },
  {
    "id": 71,
    "title": "Les Deux Alpes",
    "city": "Langres",
    "country": "France",
    "price": 368,
    "rating": 1,
    "latitude": 47.797708,
    "longitude": 5.2787119,
    "description": "Pellentesque at nulla. Suspendisse potenti. Cras in purus eu magna vulputate luctus.\n\nCum sociis natoque penatibus et magnis dis parturient montes, nascetur ridiculus mus. Vivamus vestibulum sagittis sapien. Cum sociis natoque penatibus et magnis dis parturient montes, nascetur ridiculus mus.",
    "reviews": 476
  },
  {
    "id": 72,
    "title": "Chamonix",
    "city": "Laval",
    "country": "France",
    "price": 202,
    "rating": 5,
    "latitude": 48.0762327,
    "longitude": -0.7609009,
    "description": "Curabitur gravida nisi at nibh. In hac habitasse platea dictumst. Aliquam augue quam, sollicitudin vitae, consectetuer eget, rutrum at, lorem.",
    "reviews": 49
  },
  {
    "id": 73,
    "title": "Saint-Malo",
    "city": "Taverny",
    "country": "France",
    "price": 284,
    "rating": 2,
    "latitude": 49.0344853,
    "longitude": 2.2178783,
    "description": "In hac habitasse platea dictumst. Etiam faucibus cursus urna. Ut tellus.",
    "reviews": 128
  },
  {
    "id": 74,
    "title": "Avignon",
    "city": "La Rochelle",
    "country": "France",
    "price": 201,
    "rating": 5,
    "latitude": 47.9318074,
    "longitude": 5.2893597,
    "description": "Cum sociis natoque penatibus et magnis dis parturient montes, nascetur ridiculus mus. Vivamus vestibulum sagittis sapien. Cum sociis natoque penatibus et magnis dis parturient montes, nascetur ridiculus mus.",
    "reviews": 343
  },
  {
    "id": 75,
    "title": "Biarritz",
    "city": "Vallauris",
    "country": "France",
    "price": 320,
    "rating": 2,
    "latitude": 44.2642895,
    "longitude": 5.940651,
    "description": "Phasellus sit amet erat. Nulla tempus. Vivamus in felis eu sapien cursus vestibulum.\n\nProin eu mi. Nulla ac enim. In tempor, turpis nec euismod scelerisque, quam turpis adipiscing lorem, vitae mattis nibh ligula nec sem.\n\nDuis aliquam convallis nunc. Proin at turpis a pede posuere nonummy. Integer non velit.",
    "reviews": 343
  },
  {
    "id": 76,
    "title": "Briançon",
    "city": "Mirecourt",
    "country": "France",
    "price": 43,
    "rating": 4,
    "latitude": 48.3236333,
    "longitude": 6.063383,
    "description": "Phasellus in felis. Donec semper sapien a libero. Nam dui.\n\nProin leo odio, porttitor id, consequat in, consequat ut, nulla. Sed accumsan felis. Ut at dolor quis odio consequat varius.\n\nInteger ac leo. Pellentesque ultrices mattis odio. Donec vitae nisi.",
    "reviews": 412
  },
  {
    "id": 77,
    "title": "Bourg-Saint-Maurice",
    "city": "Croissy-sur-Seine",
    "country": "France",
    "price": 336,
    "rating": 1,
    "latitude": 48.8805451,
    "longitude": 2.1476836,
    "description": "Proin leo odio, porttitor id, consequat in, consequat ut, nulla. Sed accumsan felis. Ut at dolor quis odio consequat varius.\n\nInteger ac leo. Pellentesque ultrices mattis odio. Donec vitae nisi.",
    "reviews": 203
  },
  {
    "id": 78,
    "title": "Barcelonnette",
    "city": "Valenciennes",
    "country": "France",
    "price": 172,
    "rating": 3,
    "latitude": 50.334011,
    "longitude": 3.460955,
    "description": "Morbi porttitor lorem id ligula. Suspendisse ornare consequat lectus. In est risus, auctor sed, tristique in, tempus sit amet, sem.\n\nFusce consequat. Nulla nisl. Nunc nisl.",
    "reviews": 429
  },
  {
    "id": 79,
    "title": "La Clusaz",
    "city": "Fontenay-sous-Bois",
    "country": "France",
    "price": 109,
    "rating": 2,
    "latitude": 48.8493975,
    "longitude": 2.4751086,
    "description": "Cum sociis natoque penatibus et magnis dis parturient montes, nascetur ridiculus mus. Vivamus vestibulum sagittis sapien. Cum sociis natoque penatibus et magnis dis parturient montes, nascetur ridiculus mus.",
    "reviews": 454
  },
  {
    "id": 80,
    "title": "Aix-en-Provence",
    "city": "Rennes",
    "country": "France",
    "price": 179,
    "rating": 5,
    "latitude": 43.1237608,
    "longitude": 2.317187,
    "description": "Cum sociis natoque penatibus et magnis dis parturient montes, nascetur ridiculus mus. Vivamus vestibulum sagittis sapien. Cum sociis natoque penatibus et magnis dis parturient montes, nascetur ridiculus mus.\n\nEtiam vel augue. Vestibulum rutrum rutrum neque. Aenean auctor gravida sem.",
    "reviews": 250
  },
  {
    "id": 81,
    "title": "Lourdes",
    "city": "Mâcon",
    "country": "France",
    "price": 337,
    "rating": 4,
    "latitude": 46.301744,
    "longitude": 4.797057,
    "description": "Morbi porttitor lorem id ligula. Suspendisse ornare consequat lectus. In est risus, auctor sed, tristique in, tempus sit amet, sem.\n\nFusce consequat. Nulla nisl. Nunc nisl.\n\nDuis bibendum, felis sed interdum venenatis, turpis enim blandit mi, in porttitor pede justo eu massa. Donec dapibus. Duis at velit eu est congue elementum.",
    "reviews": 34
  },
  {
    "id": 82,
    "title": "Montpellier",
    "city": "Annecy",
    "country": "France",
    "price": 123,
    "rating": 5,
    "latitude": 45.9018536,
    "longitude": 6.121072,
    "description": "Phasellus sit amet erat. Nulla tempus. Vivamus in felis eu sapien cursus vestibulum.",
    "reviews": 335
  },
  {
    "id": 83,
    "title": "Chambéry",
    "city": "Vannes",
    "country": "France",
    "price": 113,
    "rating": 5,
    "latitude": 47.6651939,
    "longitude": -2.7524402,
    "description": "Pellentesque at nulla. Suspendisse potenti. Cras in purus eu magna vulputate luctus.\n\nCum sociis natoque penatibus et magnis dis parturient montes, nascetur ridiculus mus. Vivamus vestibulum sagittis sapien. Cum sociis natoque penatibus et magnis dis parturient montes, nascetur ridiculus mus.",
    "reviews": 167
  },
  {
    "id": 84,
    "title": "Barcelonnette",
    "city": "Berck",
    "country": "France",
    "price": 215,
    "rating": 5,
    "latitude": 50.398362,
    "longitude": 1.5608271,
    "description": "Duis consequat dui nec nisi volutpat eleifend. Donec ut dolor. Morbi vel lectus in quam fringilla rhoncus.",
    "reviews": 360
  },
  {
    "id": 85,
    "title": "Colmar",
    "city": "Avranches",
    "country": "France",
    "price": 341,
    "rating": 3,
    "latitude": 48.690168,
    "longitude": -1.3699309,
    "description": "Duis consequat dui nec nisi volutpat eleifend. Donec ut dolor. Morbi vel lectus in quam fringilla rhoncus.\n\nMauris enim leo, rhoncus sed, vestibulum sit amet, cursus id, turpis. Integer aliquet, massa id lobortis convallis, tortor risus dapibus augue, vel accumsan tellus nisi eu orci. Mauris lacinia sapien quis libero.\n\nNullam sit amet turpis elementum ligula vehicula consequat. Morbi a ipsum. Integer a nibh.",
    "reviews": 417
  },
  {
    "id": 86,
    "title": "Modane",
    "city": "Altkirch",
    "country": "France",
    "price": 180,
    "rating": 3,
    "latitude": 47.620391,
    "longitude": 7.243036,
    "description": "Maecenas leo odio, condimentum id, luctus nec, molestie sed, justo. Pellentesque viverra pede ac diam. Cras pellentesque volutpat dui.\n\nMaecenas tristique, est et tempus semper, est quam pharetra magna, ac consequat metus sapien ut nunc. Vestibulum ante ipsum primis in faucibus orci luctus et ultrices posuere cubilia Curae; Mauris viverra diam vitae quam. Suspendisse potenti.\n\nNullam porttitor lacus at turpis. Donec posuere metus vitae ipsum. Aliquam non mauris.",
    "reviews": 152
  },
  {
    "id": 87,
    "title": "Le Bourg-d'Oisans",
    "city": "Metz",
    "country": "France",
    "price": 156,
    "rating": 1,
    "latitude": 49.116169,
    "longitude": 6.1807997,
    "description": "Fusce consequat. Nulla nisl. Nunc nisl.\n\nDuis bibendum, felis sed interdum venenatis, turpis enim blandit mi, in porttitor pede justo eu massa. Donec dapibus. Duis at velit eu est congue elementum.\n\nIn hac habitasse platea dictumst. Morbi vestibulum, velit id pretium iaculis, diam erat fermentum justo, nec condimentum neque sapien placerat ante. Nulla justo.",
    "reviews": 285
  },
  {
    "id": 88,
    "title": "Alpe d'Huez",
    "city": "Strasbourg",
    "country": "France",
    "price": 217,
    "rating": 5,
    "latitude": 48.5347071,
    "longitude": 7.6370168,
    "description": "Nullam porttitor lacus at turpis. Donec posuere metus vitae ipsum. Aliquam non mauris.\n\nMorbi non lectus. Aliquam sit amet diam in magna bibendum imperdiet. Nullam orci pede, venenatis non, sodales sed, tincidunt eu, felis.",
    "reviews": 397
  },
  {
    "id": 89,
    "title": "Montpellier",
    "city": "Marseille",
    "country": "France",
    "price": 271,
    "rating": 3,
    "latitude": 43.7441795,
    "longitude": 2.511999,
    "description": "Mauris enim leo, rhoncus sed, vestibulum sit amet, cursus id, turpis. Integer aliquet, massa id lobortis convallis, tortor risus dapibus augue, vel accumsan tellus nisi eu orci. Mauris lacinia sapien quis libero.\n\nNullam sit amet turpis elementum ligula vehicula consequat. Morbi a ipsum. Integer a nibh.",
    "reviews": 193
  },
  {
    "id": 90,
    "title": "Chambéry",
    "city": "Charenton-le-Pont",
    "country": "France",
    "price": 189,
    "rating": 1,
    "latitude": 48.8218211,
    "longitude": 2.3999815,
    "description": "In quis justo. Maecenas rhoncus aliquam lacus. Morbi quis tortor id nulla ultrices aliquet.",
    "reviews": 30
  },
  {
    "id": 91,
    "title": "Biarritz",
    "city": "Paris 14",
    "country": "France",
    "price": 246,
    "rating": 3,
    "latitude": 43.4945737,
    "longitude": 5.8978018,
    "description": "Nam ultrices, libero non mattis pulvinar, nulla pede ullamcorper augue, a suscipit nulla elit ac nulla. Sed vel enim sit amet nunc viverra dapibus. Nulla suscipit ligula in lacus.",
    "reviews": 228
  },
  {
    "id": 92,
    "title": "Les Deux Alpes",
    "city": "La Rochelle",
    "country": "France",
    "price": 80,
    "rating": 5,
    "latitude": 47.9318074,
    "longitude": 5.2893597,
    "description": "Integer ac leo. Pellentesque ultrices mattis odio. Donec vitae nisi.",
    "reviews": 445
  },
  {
    "id": 93,
    "title": "Les Contamines-Montjoie",
    "city": "Bayeux",
    "country": "France",
    "price": 323,
    "rating": 2,
    "latitude": 49.2803655,
    "longitude": -0.2062549,
    "description": "Proin leo odio, porttitor id, consequat in, consequat ut, nulla. Sed accumsan felis. Ut at dolor quis odio consequat varius.\n\nInteger ac leo. Pellentesque ultrices mattis odio. Donec vitae nisi.",
    "reviews": 214
  },
  {
    "id": 94,
    "title": "Avignon",
    "city": "Bondy",
    "country": "France",
    "price": 297,
    "rating": 2,
    "latitude": 46.3410256,
    "longitude": 4.9979479,
    "description": "Duis bibendum, felis sed interdum venenatis, turpis enim blandit mi, in porttitor pede justo eu massa. Donec dapibus. Duis at velit eu est congue elementum.",
    "reviews": 336
  },
  {
    "id": 95,
    "title": "Barcelonnette",
    "city": "Lille",
    "country": "France",
    "price": 221,
    "rating": 1,
    "latitude": 44.1675867,
    "longitude": 2.0308233,
    "description": "Curabitur at ipsum ac tellus semper interdum. Mauris ullamcorper purus sit amet nulla. Quisque arcu libero, rutrum ac, lobortis vel, dapibus at, diam.",
    "reviews": 143
  },
  {
    "id": 96,
    "title": "La Clusaz",
    "city": "Corbeil-Essonnes",
    "country": "France",
    "price": 344,
    "rating": 5,
    "latitude": 48.6140715,
    "longitude": 2.4739044,
    "description": "In sagittis dui vel nisl. Duis ac nibh. Fusce lacus purus, aliquet at, feugiat non, pretium quis, lectus.\n\nSuspendisse potenti. In eleifend quam a odio. In hac habitasse platea dictumst.\n\nMaecenas ut massa quis augue luctus tincidunt. Nulla mollis molestie lorem. Quisque ut erat.",
    "reviews": 327
  },
  {
    "id": 97,
    "title": "Les Deux Alpes",
    "city": "Corbeil-Essonnes",
    "country": "France",
    "price": 248,
    "rating": 1,
    "latitude": 48.5975789,
    "longitude": 2.4626489,
    "description": "Phasellus in felis. Donec semper sapien a libero. Nam dui.\n\nProin leo odio, porttitor id, consequat in, consequat ut, nulla. Sed accumsan felis. Ut at dolor quis odio consequat varius.\n\nInteger ac leo. Pellentesque ultrices mattis odio. Donec vitae nisi.",
    "reviews": 253
  },
  {
    "id": 98,
    "title": "Saint-Jean-de-Maurienne",
    "city": "Paris 08",
    "country": "France",
    "price": 114,
    "rating": 2,
    "latitude": 43.4945737,
    "longitude": 5.8978018,
    "description": "Vestibulum quam sapien, varius ut, blandit non, interdum in, ante. Vestibulum ante ipsum primis in faucibus orci luctus et ultrices posuere cubilia Curae; Duis faucibus accumsan odio. Curabitur convallis.\n\nDuis consequat dui nec nisi volutpat eleifend. Donec ut dolor. Morbi vel lectus in quam fringilla rhoncus.\n\nMauris enim leo, rhoncus sed, vestibulum sit amet, cursus id, turpis. Integer aliquet, massa id lobortis convallis, tortor risus dapibus augue, vel accumsan tellus nisi eu orci. Mauris lacinia sapien quis libero.",
    "reviews": 30
  },
  {
    "id": 99,
    "title": "Saint-Jean-de-Maurienne",
    "city": "Le Mans",
    "country": "France",
    "price": 183,
    "rating": 4,
    "latitude": 47.9956173,
    "longitude": 0.1924459,
    "description": "Nullam porttitor lacus at turpis. Donec posuere metus vitae ipsum. Aliquam non mauris.\n\nMorbi non lectus. Aliquam sit amet diam in magna bibendum imperdiet. Nullam orci pede, venenatis non, sodales sed, tincidunt eu, felis.\n\nFusce posuere felis sed lacus. Morbi sem mauris, laoreet ut, rhoncus aliquet, pulvinar sed, nisl. Nunc rhoncus dui vel sem.",
    "reviews": 366
  },
  {
    "id": 100,
    "title": "Saint-Jean-de-Maurienne",
    "city": "Saint-Étienne-du-Rouvray",
    "country": "France",
    "price": 65,
    "rating": 2,
    "latitude": 49.387383,
    "longitude": 1.0839961,
    "description": "Nullam porttitor lacus at turpis. Donec posuere metus vitae ipsum. Aliquam non mauris.\n\nMorbi non lectus. Aliquam sit amet diam in magna bibendum imperdiet. Nullam orci pede, venenatis non, sodales sed, tincidunt eu, felis.\n\nFusce posuere felis sed lacus. Morbi sem mauris, laoreet ut, rhoncus aliquet, pulvinar sed, nisl. Nunc rhoncus dui vel sem.",
    "reviews": 221
  }
]
